<?xml version="1.0" encoding="UTF-8" standalone="yes"?>
<locations>
    
    <location>
        <title>Station 1</title>
        <subtitle>Student Service Centre</subtitle>
        <lat>1.310263</lat>
        <lon>103.777829</lon>
        <description>Located at T16 (The block directly facing Dover MRT Station), the Student Service Centre (SSC) is a first point of contact for students to obtain information, guidance and services.</description>
        <panorama>38-StudentServiceCentre/38-StudentServiceCentre.html</panorama>
        <livecam></livecam>
    </location>
    
    <location>
        <title>Station 2</title>
        <subtitle>Foodcourt 5</subtitle>
        <lat>1.309517</lat>
        <lon>103.777143</lon>
        <description>Hungry? This newly renovated food court is fully air-conditioned and caters to those who prefer western food, with outlets such as KFC, Subway and Starbucks.</description>
        <panorama></panorama>
        <livecam>fc5.jpg</livecam>
    </location>
    
    <location>
        <title>Station 3</title>
        <subtitle>Swimming Pool and Gym</subtitle>
        <lat>1.309633</lat>
        <lon>103.776818</lon>
        <description>Work out at the newly renovated Fitness Gym, with full-length glass walls facing our mineral-water swimming pool.</description>
        <panorama></panorama>
        <livecam></livecam>
    </location>
    
    <location>
        <title>Station 4</title>
        <subtitle>Rock Climbing and Giant Screen</subtitle>
        <lat>1.30852</lat>
        <lon>103.77781</lon>
        <description>Witness the fun and vibrancy of sporting life on campus such as the rock wall and basketball courts.</description>
        <panorama></panorama>
        <livecam></livecam>
    </location>
    
    <location>
        <title>Station 5</title>
        <subtitle>Moberly</subtitle>
        <lat>1.308051</lat>
        <lon>103.778474</lon>
        <description>Come by at the end of a school day to chill out and relax at our recreational hub with jamming studios, snooker rooms, and so much more!</description>
        <panorama></panorama>
        <livecam></livecam>
    </location>
    
    <location>
        <title>Station 6</title>
        <subtitle>Library</subtitle>
        <lat>1.308497</lat>
        <lon>103.779878</lon>
        <description>Check out our two libraries : the Main Library and the Hilltop Library.</description>
        <panorama>29-MainLibrary/29-MainLibrary.html</panorama>
        <livecam></livecam>
    </location>
    
    <location>
        <title>Station 7</title>
        <subtitle>Innovillage@SP</subtitle>
        <lat>1.309319</lat>
        <lon>103.780164</lon>
        <description>Explore the exciting 26,000 square foor InnoVillage@SP. A living innovation eco system for future technology and lifestyle.</description>
        <panorama></panorama>
        <livecam></livecam>
    </location>
    
    <location>
        <title>Station 8</title>
        <subtitle>Nutrition, Health and Wellness Centre</subtitle>
        <lat>1.31003497452998</lat>
        <lon>103.77946794033</lon>
        <description>Check out this new centre with the widest range of latest equipment and set-ups in various laboratories.</description>
        <panorama>40-T11/40-T11.html</panorama>
        <livecam></livecam>
    </location>
    
    <location>
        <title>Station 9</title>
        <subtitle>The Biostream</subtitle>
        <lat>1.31067</lat>
        <lon>103.779253</lon>
        <description>This stream boats an abundance of fish and plant life. Come see this water miracle for yourself!</description>
        <panorama></panorama>
        <livecam></livecam>
    </location>
    
    <location>
        <title>Station 10</title>
        <subtitle>Designworks Singapore</subtitle>
        <lat>1.311588</lat>
        <lon>103.777113</lon>
        <description>This is a design-based and innovation centre, with its core mandate to push the application of design thinking and to nurture creative enterprise.</description>
        <panorama></panorama>
        <livecam></livecam>
    </location>
    
</locations>
